<?xml version="1.0" encoding="utf-8"?>
<ArrayOfVolunteer>
	<Volunteer>
		<Id>212061006</Id>
		<Name>Yuval-Or Michaeli</Name>
		<Phone>0544384575</Phone>
		<Email>Yuval@gmail.com</Email>
		<RoleType>Management</RoleType>
		<Active>true</Active>
		<DistanceType>Aerial</DistanceType>
		<Password>sdvvzrug456$BSS</Password>
		<Address>Wingate 38 Herzliya</Address>
		<Latitude>32.1793471</Latitude>
		<Longitude>34.8058526</Longitude>
		<MaxDistance>900</MaxDistance>
	</Volunteer>
	<Volunteer>
		<Id>414668152</Id>
		<Name>Itay Blum</Name>
		<Phone>0542740615</Phone>
		<Email>Itay@gmail.com</Email>
		<RoleType>Volunteer</RoleType>
		<Active>true</Active>
		<DistanceType>Walking</DistanceType>
		<Password>sdvvzrug456$BSS</Password>
		<Address>Abba Eban 2 Herzliya</Address>
		<Latitude>32.1607272</Latitude>
		<Longitude>34.8103495</Longitude>
		<MaxDistance>695</MaxDistance>
	</Volunteer>
	<Volunteer>
		<Id>769092784</Id>
		<Name>Amit Grossman</Name>
		<Phone>0546346251</Phone>
		<Email>Amit@gmail.com</Email>
		<RoleType>Volunteer</RoleType>
		<Active>true</Active>
		<DistanceType>Driving</DistanceType>
		<Password>sdvvzrug456$BSS</Password>
		<Address>Arlozorov 4 Herzliya</Address>
		<Latitude>32.1606701</Latitude>
		<Longitude>34.8428238</Longitude>
		<MaxDistance>598</MaxDistance>
	</Volunteer>
	<Volunteer>
		<Id>199615691</Id>
		<Name>Tal Shapiro</Name>
		<Phone>0542416753</Phone>
		<Email>Tal@gmail.com</Email>
		<RoleType>Volunteer</RoleType>
		<Active>true</Active>
		<DistanceType>Walking</DistanceType>
		<Password>sdvvzrug456$BSS</Password>
		<Address>Ben Yehuda 12 Herzliya</Address>
		<Latitude>32.1627761</Latitude>
		<Longitude>34.8451422</Longitude>
		<MaxDistance>428</MaxDistance>
	</Volunteer>
	<Volunteer>
		<Id>483588042</Id>
		<Name>Yossi Mizrachi</Name>
		<Phone>0548188719</Phone>
		<Email>Yossi@gmail.com</Email>
		<RoleType>Volunteer</RoleType>
		<Active>false</Active>
		<DistanceType>Aerial</DistanceType>
		<Password>sdvvzrug456$BSS</Password>
		<Address>Hagalil 11 Herzliya</Address>
		<Latitude>32.1658838</Latitude>
		<Longitude>34.8439588</Longitude>
		<MaxDistance>778</MaxDistance>
	</Volunteer>
	<Volunteer>
		<Id>814082350</Id>
		<Name>Shira Ben-David</Name>
		<Phone>0544260883</Phone>
		<Email>Shira@gmail.com</Email>
		<RoleType>Volunteer</RoleType>
		<Active>true</Active>
		<DistanceType>Aerial</DistanceType>
		<Password>sdvvzrug456$BSS</Password>
		<Address>Maskit 27 Herzliya</Address>
		<Latitude>32.1632571</Latitude>
		<Longitude>34.8107107</Longitude>
		<MaxDistance>263</MaxDistance>
	</Volunteer>
	<Volunteer>
		<Id>890772528</Id>
		<Name>Sarah Cohen</Name>
		<Phone>0541361859</Phone>
		<Email>Sarah@gmail.com</Email>
		<RoleType>Volunteer</RoleType>
		<Active>true</Active>
		<DistanceType>Driving</DistanceType>
		<Password>sdvvzrug456$BSS</Password>
		<Address>Ben Gurion 12 Herzliya</Address>
		<Latitude>32.1650377</Latitude>
		<Longitude>34.8424487</Longitude>
		<MaxDistance>237</MaxDistance>
	</Volunteer>
	<Volunteer>
		<Id>630480895</Id>
		<Name>Michal Avraham</Name>
		<Phone>0544027242</Phone>
		<Email>Michal@gmail.com</Email>
		<RoleType>Volunteer</RoleType>
		<Active>true</Active>
		<DistanceType>Driving</DistanceType>
		<Password>sdvvzrug456$BSS</Password>
		<Address>Ramat Yam 60 Herzliya</Address>
		<Latitude>32.171456</Latitude>
		<Longitude>34.800546</Longitude>
		<MaxDistance>112</MaxDistance>
	</Volunteer>
	<Volunteer>
		<Id>860418466</Id>
		<Name>Nir Carmi</Name>
		<Phone>0549647259</Phone>
		<Email>Nir@gmail.com</Email>
		<RoleType>Volunteer</RoleType>
		<Active>true</Active>
		<DistanceType>Aerial</DistanceType>
		<Password>sdvvzrug456$BSS</Password>
		<Address>Weizmann 8 Kfar Saba</Address>
		<Latitude>32.1779805</Latitude>
		<Longitude>34.8957918</Longitude>
		<MaxDistance>76</MaxDistance>
	</Volunteer>
	<Volunteer>
		<Id>968182550</Id>
		<Name>Gal Noy</Name>
		<Phone>0541622828</Phone>
		<Email>Gal@gmail.com</Email>
		<RoleType>Volunteer</RoleType>
		<Active>true</Active>
		<DistanceType>Walking</DistanceType>
		<Password>sdvvzrug456$BSS</Password>
		<Address>Shenkar 3 Herzliya</Address>
		<Latitude>32.1602438</Latitude>
		<Longitude>34.8095785</Longitude>
		<MaxDistance>625</MaxDistance>
	</Volunteer>
	<Volunteer>
		<Id>645628330</Id>
		<Name>Ronen Fisher</Name>
		<Phone>0545247177</Phone>
		<Email>Ronen@gmail.com</Email>
		<RoleType>Volunteer</RoleType>
		<Active>true</Active>
		<DistanceType>Walking</DistanceType>
		<Password>sdvvzrug456$BSS</Password>
		<Address>Herzl 20 Netanya</Address>
		<Latitude>32.3290299</Latitude>
		<Longitude>34.8555807</Longitude>
		<MaxDistance>19</MaxDistance>
	</Volunteer>
	<Volunteer>
		<Id>125771352</Id>
		<Name>Yael Katz</Name>
		<Phone>0549339489</Phone>
		<Email>Yael@gmail.com</Email>
		<RoleType>Volunteer</RoleType>
		<Active>false</Active>
		<DistanceType>Walking</DistanceType>
		<Password>sdvvzrug456$BSS</Password>
		<Address>Ben Gurion 1 Netanya</Address>
		<Latitude>32.279103</Latitude>
		<Longitude>34.852303</Longitude>
		<MaxDistance>103</MaxDistance>
	</Volunteer>
	<Volunteer>
		<Id>676411572</Id>
		<Name>Hila Raz</Name>
		<Phone>0544871767</Phone>
		<Email>Hila@gmail.com</Email>
		<RoleType>Volunteer</RoleType>
		<Active>true</Active>
		<DistanceType>Walking</DistanceType>
		<Password>sdvvzrug456$BSS</Password>
		<Address>Haatzmaut 34 Sderot</Address>
		<Latitude>31.5300071</Latitude>
		<Longitude>34.5897336</Longitude>
		<MaxDistance>492</MaxDistance>
	</Volunteer>
	<Volunteer>
		<Id>900191180</Id>
		<Name>Noam Peretz</Name>
		<Phone>0546905737</Phone>
		<Email>Noam@gmail.com</Email>
		<RoleType>Volunteer</RoleType>
		<Active>false</Active>
		<DistanceType>Walking</DistanceType>
		<Password>sdvvzrug456$BSS</Password>
		<Address>Tchernichovsky 7 Netanya</Address>
		<Latitude>32.3219803</Latitude>
		<Longitude>34.8527596</Longitude>
		<MaxDistance>321</MaxDistance>
	</Volunteer>
	<Volunteer>
		<Id>646971218</Id>
		<Name>Maya Solomon</Name>
		<Phone>0546758324</Phone>
		<Email>Maya@gmail.com</Email>
		<RoleType>Volunteer</RoleType>
		<Active>true</Active>
		<DistanceType>Aerial</DistanceType>
		<Password>sdvvzrug456$BSS</Password>
		<Address>Dizengoff 16 Netanya</Address>
		<Latitude>32.3306203</Latitude>
		<Longitude>34.8543236</Longitude>
		<MaxDistance>207</MaxDistance>
	</Volunteer>
	<Volunteer>
		<Id>471015230</Id>
		<Name>Erez Ben-Yosef</Name>
		<Phone>0547199516</Phone>
		<Email>Erez@gmail.com</Email>
		<RoleType>Volunteer</RoleType>
		<Active>false</Active>
		<DistanceType>Aerial</DistanceType>
		<Password>sdvvzrug456$BSS</Password>
		<Address>Sheshet Hayamim 3 Netanya</Address>
		<Latitude>32.321458</Latitude>
		<Longitude>34.853196</Longitude>
		<MaxDistance>626</MaxDistance>
	</Volunteer>
	<Volunteer>
		<Id>740867924</Id>
		<Name>Avital Ashkenazi</Name>
		<Phone>0547742395</Phone>
		<Email>Avital@gmail.com</Email>
		<RoleType>Volunteer</RoleType>
		<Active>true</Active>
		<DistanceType>Aerial</DistanceType>
		<Password>sdvvzrug456$BSS</Password>
		<Address>Ruppin 21 Netanya</Address>
		<Latitude>32.28087</Latitude>
		<Longitude>34.853791</Longitude>
		<MaxDistance>147</MaxDistance>
	</Volunteer>
	<Volunteer>
		<Id>136023348</Id>
		<Name>Ariel Ben-Ami</Name>
		<Phone>0546533206</Phone>
		<Email>Ariel@gmail.com</Email>
		<RoleType>Volunteer</RoleType>
		<Active>true</Active>
		<DistanceType>Walking</DistanceType>
		<Password>sdvvzrug456$BSS</Password>
		<Address>HaNeviim 18 Netanya</Address>
		<Latitude>32.2967773</Latitude>
		<Longitude>34.8577569</Longitude>
		<MaxDistance>987</MaxDistance>
	</Volunteer>
	<Volunteer>
		<Id>413126467</Id>
		<Name>Tzvika Mor</Name>
		<Phone>0541216477</Phone>
		<Email>Tzvika@gmail.com</Email>
		<RoleType>Volunteer</RoleType>
		<Active>true</Active>
		<DistanceType>Aerial</DistanceType>
		<Password>sdvvzrug456$BSS</Password>
		<Address>Ben Ami 28 Netanya</Address>
		<Latitude>32.321458</Latitude>
		<Longitude>34.853196</Longitude>
		<MaxDistance>361</MaxDistance>
	</Volunteer>
	<Volunteer>
		<Id>343193413</Id>
		<Name>Lior Shani</Name>
		<Phone>0546112872</Phone>
		<Email>Lior@gmail.com</Email>
		<RoleType>Volunteer</RoleType>
		<Active>true</Active>
		<DistanceType>Walking</DistanceType>
		<Password>sdvvzrug456$BSS</Password>
		<Address>Tchernichovsky 32 Netanya</Address>
		<Latitude>32.3208972</Latitude>
		<Longitude>34.8557568</Longitude>
		<MaxDistance>366</MaxDistance>
	</Volunteer>
	<Volunteer>
		<Id>409474616</Id>
		<Name>Adi Malka</Name>
		<Phone>0541374852</Phone>
		<Email>Adi@gmail.com</Email>
		<RoleType>Volunteer</RoleType>
		<Active>true</Active>
		<DistanceType>Driving</DistanceType>
		<Password>sdvvzrug456$BSS</Password>
		<Address>Ahuza 124 Raanana</Address>
		<Latitude>32.1808257</Latitude>
		<Longitude>34.8739939</Longitude>
		<MaxDistance>267</MaxDistance>
	</Volunteer>
	<Volunteer>
		<Id>648982312</Id>
		<Name>Doron Peled</Name>
		<Phone>0547910710</Phone>
		<Email>Doron@gmail.com</Email>
		<RoleType>Volunteer</RoleType>
		<Active>true</Active>
		<DistanceType>Driving</DistanceType>
		<Password>sdvvzrug456$BSS</Password>
		<Address>HaPalmach 18 Raanana</Address>
		<Latitude>32.1905863</Latitude>
		<Longitude>34.8741786</Longitude>
		<MaxDistance>503</MaxDistance>
	</Volunteer>
	<Volunteer>
		<Id>206952855</Id>
		<Name>Eden Levi</Name>
		<Phone>0545730278</Phone>
		<Email>Eden@gmail.com</Email>
		<RoleType>Volunteer</RoleType>
		<Active>true</Active>
		<DistanceType>Walking</DistanceType>
		<Password>sdvvzrug456$BSS</Password>
		<Address>Weizmann 40 Kfar Saba</Address>
		<Latitude>32.1705469</Latitude>
		<Longitude>34.9286637</Longitude>
		<MaxDistance>565</MaxDistance>
	</Volunteer>
	<Volunteer>
		<Id>753925171</Id>
		<Name>Benny Tal</Name>
		<Phone>0546683651</Phone>
		<Email>Benny@gmail.com</Email>
		<RoleType>Volunteer</RoleType>
		<Active>true</Active>
		<DistanceType>Aerial</DistanceType>
		<Password>sdvvzrug456$BSS</Password>
		<Address>Herzl 53 Raanana</Address>
		<Latitude>32.1775266</Latitude>
		<Longitude>34.8678441</Longitude>
		<MaxDistance>932</MaxDistance>
	</Volunteer>
	<Volunteer>
		<Id>336153267</Id>
		<Name>Gali Levy</Name>
		<Phone>0543034669</Phone>
		<Email>Gali@gmail.com</Email>
		<RoleType>Volunteer</RoleType>
		<Active>true</Active>
		<DistanceType>Walking</DistanceType>
		<Password>sdvvzrug456$BSS</Password>
		<Address>Nordau 5 Raanana</Address>
		<Latitude>32.1854065</Latitude>
		<Longitude>34.8853162</Longitude>
		<MaxDistance>971</MaxDistance>
	</Volunteer>
	<Volunteer>
		<Id>799292560</Id>
		<Name>Avi Nave</Name>
		<Phone>0543961628</Phone>
		<Email>Avi@gmail.com</Email>
		<RoleType>Volunteer</RoleType>
		<Active>true</Active>
		<DistanceType>Driving</DistanceType>
		<Password>sdvvzrug456$BSS</Password>
		<Address>HaRav Kook 10 Raanana</Address>
		<Latitude>32.1961516</Latitude>
		<Longitude>34.8743499</Longitude>
		<MaxDistance>222</MaxDistance>
	</Volunteer>
	<Volunteer>
		<Id>760108522</Id>
		<Name>Yaara Shmuel</Name>
		<Phone>0546005005</Phone>
		<Email>Yaara@gmail.com</Email>
		<RoleType>Volunteer</RoleType>
		<Active>true</Active>
		<DistanceType>Aerial</DistanceType>
		<Password>sdvvzrug456$BSS</Password>
		<Address>HaYovel 16 Raanana</Address>
		<Latitude>32.1843411</Latitude>
		<Longitude>34.8725648</Longitude>
		<MaxDistance>719</MaxDistance>
	</Volunteer>
	<Volunteer>
		<Id>642772826</Id>
		<Name>Yonatan Green</Name>
		<Phone>0541684306</Phone>
		<Email>Yonatan@gmail.com</Email>
		<RoleType>Volunteer</RoleType>
		<Active>true</Active>
		<DistanceType>Driving</DistanceType>
		<Password>sdvvzrug456$BSS</Password>
		<Address>Ben Gurion 5 Raanana</Address>
		<Latitude>32.180409</Latitude>
		<Longitude>34.87231</Longitude>
		<MaxDistance>120</MaxDistance>
	</Volunteer>
	<Volunteer>
		<Id>438695454</Id>
		<Name>Hadar Silver</Name>
		<Phone>0546651136</Phone>
		<Email>Hadar@gmail.com</Email>
		<RoleType>Volunteer</RoleType>
		<Active>true</Active>
		<DistanceType>Aerial</DistanceType>
		<Password>sdvvzrug456$BSS</Password>
		<Address>HaEshel 7 Raanana</Address>
		<Latitude>32.1916612</Latitude>
		<Longitude>34.8585775</Longitude>
		<MaxDistance>949</MaxDistance>
	</Volunteer>
	<Volunteer>
		<Id>338232390</Id>
		<Name>Ella Sapir</Name>
		<Phone>0546307464</Phone>
		<Email>Ella@gmail.com</Email>
		<RoleType>Volunteer</RoleType>
		<Active>true</Active>
		<DistanceType>Driving</DistanceType>
		<Password>sdvvzrug456$BSS</Password>
		<Address>Dizengoff 48 Tel Aviv</Address>
		<Latitude>32.0748561</Latitude>
		<Longitude>34.7761884</Longitude>
		<MaxDistance>822</MaxDistance>
	</Volunteer>
	<Volunteer>
		<Id>159064245</Id>
		<Name>David Golan</Name>
		<Phone>0543727071</Phone>
		<Email>David@gmail.com</Email>
		<RoleType>Volunteer</RoleType>
		<Active>true</Active>
		<DistanceType>Walking</DistanceType>
		<Password>sdvvzrug456$BSS</Password>
		<Address>Rothschild 22 Tel Aviv</Address>
		<Latitude>32.0627896</Latitude>
		<Longitude>34.7714756</Longitude>
		<MaxDistance>365</MaxDistance>
	</Volunteer>
	<Volunteer>
		<Id>538932781</Id>
		<Name>Shani Alon</Name>
		<Phone>0542447583</Phone>
		<Email>Shani@gmail.com</Email>
		<RoleType>Volunteer</RoleType>
		<Active>true</Active>
		<DistanceType>Walking</DistanceType>
		<Password>sdvvzrug456$BSS</Password>
		<Address>Ibn Gabirol 15 Tel Aviv</Address>
		<Latitude>32.0726935</Latitude>
		<Longitude>34.7816096</Longitude>
		<MaxDistance>130</MaxDistance>
	</Volunteer>
	<Volunteer>
		<Id>898785811</Id>
		<Name>Omer Dahan</Name>
		<Phone>0541251824</Phone>
		<Email>Omer@gmail.com</Email>
		<RoleType>Volunteer</RoleType>
		<Active>false</Active>
		<DistanceType>Aerial</DistanceType>
		<Password>sdvvzrug456$BSS</Password>
		<Address>Dizengoff 102 Tel Aviv</Address>
		<Latitude>32.0796074</Latitude>
		<Longitude>34.7740421</Longitude>
		<MaxDistance>751</MaxDistance>
	</Volunteer>
	<Volunteer>
		<Id>744900507</Id>
		<Name>Rotem Menashe</Name>
		<Phone>0547255759</Phone>
		<Email>Rotem@gmail.com</Email>
		<RoleType>Volunteer</RoleType>
		<Active>true</Active>
		<DistanceType>Driving</DistanceType>
		<Password>sdvvzrug456$BSS</Password>
		<Address>Allenby 99 Tel Aviv</Address>
		<Latitude>32.0646173</Latitude>
		<Longitude>34.7726696</Longitude>
		<MaxDistance>91</MaxDistance>
	</Volunteer>
	<Volunteer>
		<Id>253393144</Id>
		<Name>Roi Bachar</Name>
		<Phone>0544642703</Phone>
		<Email>Roi@gmail.com</Email>
		<RoleType>Volunteer</RoleType>
		<Active>true</Active>
		<DistanceType>Walking</DistanceType>
		<Password>sdvvzrug456$BSS</Password>
		<Address>King George 29 Tel Aviv</Address>
		<Latitude>32.0717837</Latitude>
		<Longitude>34.7731051</Longitude>
		<MaxDistance>388</MaxDistance>
	</Volunteer>
	<Volunteer>
		<Id>729969121</Id>
		<Name>Tomer Brill</Name>
		<Phone>0543538166</Phone>
		<Email>Tomer@gmail.com</Email>
		<RoleType>Volunteer</RoleType>
		<Active>false</Active>
		<DistanceType>Aerial</DistanceType>
		<Password>sdvvzrug456$BSS</Password>
		<Address>Shenkin 17 Tel Aviv</Address>
		<Latitude>32.0695395</Latitude>
		<Longitude>34.7723678</Longitude>
		<MaxDistance>891</MaxDistance>
	</Volunteer>
	<Volunteer>
		<Id>698283678</Id>
		<Name>Linor Yaakov</Name>
		<Phone>0542601287</Phone>
		<Email>Linor@gmail.com</Email>
		<RoleType>Volunteer</RoleType>
		<Active>true</Active>
		<DistanceType>Driving</DistanceType>
		<Password>sdvvzrug456$BSS</Password>
		<Address>Bograshov 20 Tel Aviv</Address>
		<Latitude>32.0769951</Latitude>
		<Longitude>34.7692827</Longitude>
		<MaxDistance>110</MaxDistance>
	</Volunteer>
	<Volunteer>
		<Id>775825797</Id>
		<Name>Hodaya Shaked</Name>
		<Phone>0544122279</Phone>
		<Email>Hodaya@gmail.com</Email>
		<RoleType>Volunteer</RoleType>
		<Active>true</Active>
		<DistanceType>Driving</DistanceType>
		<Password>sdvvzrug456$BSS</Password>
		<Address>Frishman 22 Tel Aviv</Address>
		<Latitude>32.0797596</Latitude>
		<Longitude>34.7706442</Longitude>
		<MaxDistance>117</MaxDistance>
	</Volunteer>
	<Volunteer>
		<Id>489129130</Id>
		<Name>Elad Rozen</Name>
		<Phone>0545268536</Phone>
		<Email>Elad@gmail.com</Email>
		<RoleType>Volunteer</RoleType>
		<Active>false</Active>
		<DistanceType>Aerial</DistanceType>
		<Password>sdvvzrug456$BSS</Password>
		<Address>Yehuda HaMaccabi 15 Tel Aviv</Address>
		<Latitude>32.0938841</Latitude>
		<Longitude>34.7860657</Longitude>
		<MaxDistance>941</MaxDistance>
	</Volunteer>
	<Volunteer>
		<Id>727827982</Id>
		<Name>Maayan Sasson</Name>
		<Phone>0545254673</Phone>
		<Email>Maayan@gmail.com</Email>
		<RoleType>Volunteer</RoleType>
		<Active>false</Active>
		<DistanceType>Aerial</DistanceType>
		<Password>sdvvzrug456$BSS</Password>
		<Address>Mikve Israel 19 Tel Aviv</Address>
		<Latitude>32.062857</Latitude>
		<Longitude>34.7770402</Longitude>
		<MaxDistance>898</MaxDistance>
	</Volunteer>
	<Volunteer>
		<Id>234146918</Id>
		<Name>Hanan Ravid</Name>
		<Phone>0541612994</Phone>
		<Email>Hanan@gmail.com</Email>
		<RoleType>Volunteer</RoleType>
		<Active>true</Active>
		<DistanceType>Driving</DistanceType>
		<Password>sdvvzrug456$BSS</Password>
		<Address>Weizmann 35 Kfar Saba</Address>
		<Latitude>32.177421</Latitude>
		<Longitude>34.899857</Longitude>
		<MaxDistance>2</MaxDistance>
	</Volunteer>
	<Volunteer>
		<Id>342006582</Id>
		<Name>Ron Aloni</Name>
		<Phone>0543512630</Phone>
		<Email>Ron@gmail.com</Email>
		<RoleType>Volunteer</RoleType>
		<Active>true</Active>
		<DistanceType>Aerial</DistanceType>
		<Password>sdvvzrug456$BSS</Password>
		<Address>Herzl 12 Kfar Saba</Address>
		<Latitude>32.1709483</Latitude>
		<Longitude>34.9104764</Longitude>
		<MaxDistance>733</MaxDistance>
	</Volunteer>
	<Volunteer>
		<Id>660739301</Id>
		<Name>Galit Azulay</Name>
		<Phone>0546992780</Phone>
		<Email>Galit@gmail.com</Email>
		<RoleType>Volunteer</RoleType>
		<Active>true</Active>
		<DistanceType>Walking</DistanceType>
		<Password>sdvvzrug456$BSS</Password>
		<Address>Weizmann 50 Kfar Saba</Address>
		<Latitude>32.1765135</Latitude>
		<Longitude>34.9015956</Longitude>
		<MaxDistance>430</MaxDistance>
	</Volunteer>
	<Volunteer>
		<Id>516136835</Id>
		<Name>Oded Tal</Name>
		<Phone>0542513368</Phone>
		<Email>Oded@gmail.com</Email>
		<RoleType>Volunteer</RoleType>
		<Active>true</Active>
		<DistanceType>Walking</DistanceType>
		<Password>sdvvzrug456$BSS</Password>
		<Address>Arlozorov 25 Kfar Saba</Address>
		<Latitude>32.1708769</Latitude>
		<Longitude>34.9047851</Longitude>
		<MaxDistance>109</MaxDistance>
	</Volunteer>
	<Volunteer>
		<Id>739825909</Id>
		<Name>Dana Biran</Name>
		<Phone>0549533184</Phone>
		<Email>Dana@gmail.com</Email>
		<RoleType>Volunteer</RoleType>
		<Active>true</Active>
		<DistanceType>Driving</DistanceType>
		<Password>sdvvzrug456$BSS</Password>
		<Address>Dizengoff 55 Tel Aviv</Address>
		<Latitude>32.0754236</Latitude>
		<Longitude>34.7748328</Longitude>
		<MaxDistance>958</MaxDistance>
	</Volunteer>
	<Volunteer>
		<Id>793106899</Id>
		<Name>Ofir Gil</Name>
		<Phone>0542869203</Phone>
		<Email>Ofir@gmail.com</Email>
		<RoleType>Volunteer</RoleType>
		<Active>true</Active>
		<DistanceType>Aerial</DistanceType>
		<Password>sdvvzrug456$BSS</Password>
		<Address>Herzl 78 Kfar Saba</Address>
		<Latitude>32.1772724</Latitude>
		<Longitude>34.9121208</Longitude>
		<MaxDistance>507</MaxDistance>
	</Volunteer>
	<Volunteer>
		<Id>604740043</Id>
		<Name>Nofar Ben-Atar</Name>
		<Phone>0542531270</Phone>
		<Email>Nofar@gmail.com</Email>
		<RoleType>Volunteer</RoleType>
		<Active>true</Active>
		<DistanceType>Walking</DistanceType>
		<Password>sdvvzrug456$BSS</Password>
		<Address>Tel Hai 33 Kfar Saba</Address>
		<Latitude>32.1737073</Latitude>
		<Longitude>34.9138018</Longitude>
		<MaxDistance>253</MaxDistance>
	</Volunteer>
	<Volunteer>
		<Id>751356403</Id>
		<Name>Ruth Shalom</Name>
		<Phone>0546347510</Phone>
		<Email>Ruth@gmail.com</Email>
		<RoleType>Volunteer</RoleType>
		<Active>false</Active>
		<DistanceType>Driving</DistanceType>
		<Password>sdvvzrug456$BSS</Password>
		<Address>HaRav Maimon 6 Herzliya</Address>
		<Latitude>32.1652867</Latitude>
		<Longitude>34.83199</Longitude>
		<MaxDistance>806</MaxDistance>
	</Volunteer>
	<Volunteer>
		<Id>277493557</Id>
		<Name>Itamar Cohen</Name>
		<Phone>0541868370</Phone>
		<Email>Itamar@gmail.com</Email>
		<RoleType>Volunteer</RoleType>
		<Active>true</Active>
		<DistanceType>Driving</DistanceType>
		<Password>sdvvzrug456$BSS</Password>
		<Address>Rothschild 9 Kfar Saba</Address>
		<Latitude>32.1709569</Latitude>
		<Longitude>34.9070413</Longitude>
		<MaxDistance>563</MaxDistance>
	</Volunteer>
	<Volunteer>
		<Id>313770588</Id>
		<Name>Yael Ben-Zvi</Name>
		<Phone>0548582869</Phone>
		<Email>Yael@gmail.com</Email>
		<RoleType>Volunteer</RoleType>
		<Active>true</Active>
		<DistanceType>Aerial</DistanceType>
		<Password>sdvvzrug456$BSS</Password>
		<Address>Sokolov 3 Kfar Saba</Address>
		<Latitude>32.1762246</Latitude>
		<Longitude>34.9028277</Longitude>
		<MaxDistance>736</MaxDistance>
	</Volunteer>
</ArrayOfVolunteer>
