<?xml version="1.0" encoding="utf-8"?>
<ArrayOfVolunteer>
  <Volunteer>
    <Id>918977307</Id>
    <Name>Itay Blum</Name>
    <Phone>0541767103</Phone>
    <Email>Itay@gmail.com</Email>
    <RoleType>Volunteer</RoleType>
    <Active>true</Active>
    <DistanceType>Driving</DistanceType>
    <Password>password123!?PP</Password>
    <Address>Abba Eban 2 Herzliya</Address>
    <Latitude>32.1607272</Latitude>
    <Longitude>34.8103495</Longitude>
    <MaxDistance>834</MaxDistance>
  </Volunteer>
  <Volunteer>
    <Id>429455538</Id>
    <Name>Amit Grossman</Name>
    <Phone>0543278448</Phone>
    <Email>Amit@gmail.com</Email>
    <RoleType>Volunteer</RoleType>
    <Active>true</Active>
    <DistanceType>Walking</DistanceType>
    <Password>password123!?PP</Password>
    <Address>Arlozorov 4 Herzliya</Address>
    <Latitude>32.1606701</Latitude>
    <Longitude>34.8428238</Longitude>
    <MaxDistance>38</MaxDistance>
  </Volunteer>
  <Volunteer>
    <Id>262930977</Id>
    <Name>Tal Shapiro</Name>
    <Phone>0546077420</Phone>
    <Email>Tal@gmail.com</Email>
    <RoleType>Volunteer</RoleType>
    <Active>true</Active>
    <DistanceType>Aerial</DistanceType>
    <Password>password123!?PP</Password>
    <Address>Ben Yehuda 12 Herzliya</Address>
    <Latitude>32.1627761</Latitude>
    <Longitude>34.8451422</Longitude>
    <MaxDistance>600</MaxDistance>
  </Volunteer>
  <Volunteer>
    <Id>759785991</Id>
    <Name>Yossi Mizrachi</Name>
    <Phone>0549803554</Phone>
    <Email>Yossi@gmail.com</Email>
    <RoleType>Volunteer</RoleType>
    <Active>true</Active>
    <DistanceType>Aerial</DistanceType>
    <Password>password123!?PP</Password>
    <Address>Hagalil 11 Herzliya</Address>
    <Latitude>32.1658838</Latitude>
    <Longitude>34.8439588</Longitude>
    <MaxDistance>745</MaxDistance>
  </Volunteer>
  <Volunteer>
    <Id>961830916</Id>
    <Name>Sarah Cohen</Name>
    <Phone>0549528444</Phone>
    <Email>Sarah@gmail.com</Email>
    <RoleType>Volunteer</RoleType>
    <Active>true</Active>
    <DistanceType>Driving</DistanceType>
    <Password>password123!?PP</Password>
    <Address>Ben Gurion 12 Herzliya</Address>
    <Latitude>32.1650377</Latitude>
    <Longitude>34.8424487</Longitude>
    <MaxDistance>599</MaxDistance>
  </Volunteer>
  <Volunteer>
    <Id>721392355</Id>
    <Name>Michal Avraham</Name>
    <Phone>0547183900</Phone>
    <Email>Michal@gmail.com</Email>
    <RoleType>Volunteer</RoleType>
    <Active>true</Active>
    <DistanceType>Driving</DistanceType>
    <Password>password123!?PP</Password>
    <Address>Ramat Yam 60 Herzliya</Address>
    <Latitude>32.171456</Latitude>
    <Longitude>34.800546</Longitude>
    <MaxDistance>582</MaxDistance>
  </Volunteer>
  <Volunteer>
    <Id>799951298</Id>
    <Name>Nir Carmi</Name>
    <Phone>0545512970</Phone>
    <Email>Nir@gmail.com</Email>
    <RoleType>Volunteer</RoleType>
    <Active>true</Active>
    <DistanceType>Driving</DistanceType>
    <Password>password123!?PP</Password>
    <Address>Weizmann 8 Kfar Saba</Address>
    <Latitude>32.1779805</Latitude>
    <Longitude>34.8957918</Longitude>
    <MaxDistance>416</MaxDistance>
  </Volunteer>
  <Volunteer>
    <Id>720384718</Id>
    <Name>Gal Noy</Name>
    <Phone>0545004393</Phone>
    <Email>Gal@gmail.com</Email>
    <RoleType>Volunteer</RoleType>
    <Active>true</Active>
    <DistanceType>Aerial</DistanceType>
    <Password>password123!?PP</Password>
    <Address>Shenkar 3 Herzliya</Address>
    <Latitude>32.1602438</Latitude>
    <Longitude>34.8095785</Longitude>
    <MaxDistance>731</MaxDistance>
  </Volunteer>
  <Volunteer>
    <Id>748484789</Id>
    <Name>Ronen Fisher</Name>
    <Phone>0544079323</Phone>
    <Email>Ronen@gmail.com</Email>
    <RoleType>Volunteer</RoleType>
    <Active>true</Active>
    <DistanceType>Walking</DistanceType>
    <Password>password123!?PP</Password>
    <Address>Herzl 20 Netanya</Address>
    <Latitude>32.3290299</Latitude>
    <Longitude>34.8555807</Longitude>
    <MaxDistance>792</MaxDistance>
  </Volunteer>
  <Volunteer>
    <Id>456962356</Id>
    <Name>Yael Katz</Name>
    <Phone>0542054225</Phone>
    <Email>Yael@gmail.com</Email>
    <RoleType>Volunteer</RoleType>
    <Active>true</Active>
    <DistanceType>Aerial</DistanceType>
    <Password>password123!?PP</Password>
    <Address>Ben Gurion 1 Netanya</Address>
    <Latitude>32.279103</Latitude>
    <Longitude>34.852303</Longitude>
    <MaxDistance>995</MaxDistance>
  </Volunteer>
  <Volunteer>
    <Id>526553862</Id>
    <Name>Hila Raz</Name>
    <Phone>0542407176</Phone>
    <Email>Hila@gmail.com</Email>
    <RoleType>Volunteer</RoleType>
    <Active>true</Active>
    <DistanceType>Aerial</DistanceType>
    <Password>password123!?PP</Password>
    <Address>Haatzmaut 34 Sderot</Address>
    <Latitude>31.5300071</Latitude>
    <Longitude>34.5897336</Longitude>
    <MaxDistance>935</MaxDistance>
  </Volunteer>
  <Volunteer>
    <Id>968194597</Id>
    <Name>Noam Peretz</Name>
    <Phone>0544333403</Phone>
    <Email>Noam@gmail.com</Email>
    <RoleType>Volunteer</RoleType>
    <Active>true</Active>
    <DistanceType>Walking</DistanceType>
    <Password>password123!?PP</Password>
    <Address>Tchernichovsky 7 Netanya</Address>
    <Latitude>32.3219803</Latitude>
    <Longitude>34.8527596</Longitude>
    <MaxDistance>410</MaxDistance>
  </Volunteer>
  <Volunteer>
    <Id>385085964</Id>
    <Name>Maya Solomon</Name>
    <Phone>0543144604</Phone>
    <Email>Maya@gmail.com</Email>
    <RoleType>Volunteer</RoleType>
    <Active>true</Active>
    <DistanceType>Driving</DistanceType>
    <Password>password123!?PP</Password>
    <Address>Dizengoff 16 Netanya</Address>
    <Latitude>32.3306203</Latitude>
    <Longitude>34.8543236</Longitude>
    <MaxDistance>322</MaxDistance>
  </Volunteer>
  <Volunteer>
    <Id>626933063</Id>
    <Name>Erez Ben-Yosef</Name>
    <Phone>0545752290</Phone>
    <Email>Erez@gmail.com</Email>
    <RoleType>Volunteer</RoleType>
    <Active>true</Active>
    <DistanceType>Aerial</DistanceType>
    <Password>password123!?PP</Password>
    <Address>Sheshet Hayamim 3 Netanya</Address>
    <Latitude>32.321458</Latitude>
    <Longitude>34.853196</Longitude>
    <MaxDistance>282</MaxDistance>
  </Volunteer>
  <Volunteer>
    <Id>635598022</Id>
    <Name>Avital Ashkenazi</Name>
    <Phone>0548111115</Phone>
    <Email>Avital@gmail.com</Email>
    <RoleType>Volunteer</RoleType>
    <Active>true</Active>
    <DistanceType>Driving</DistanceType>
    <Password>password123!?PP</Password>
    <Address>Ruppin 21 Netanya</Address>
    <Latitude>32.28087</Latitude>
    <Longitude>34.853791</Longitude>
    <MaxDistance>356</MaxDistance>
  </Volunteer>
  <Volunteer>
    <Id>831040662</Id>
    <Name>Ariel Ben-Ami</Name>
    <Phone>054290262</Phone>
    <Email>Ariel@gmail.com</Email>
    <RoleType>Volunteer</RoleType>
    <Active>true</Active>
    <DistanceType>Aerial</DistanceType>
    <Password>password123!?PP</Password>
    <Address>HaNeviim 18 Netanya</Address>
    <Latitude>32.2967773</Latitude>
    <Longitude>34.8577569</Longitude>
    <MaxDistance>353</MaxDistance>
  </Volunteer>
  <Volunteer>
    <Id>355248261</Id>
    <Name>Tzvika Mor</Name>
    <Phone>0546587636</Phone>
    <Email>Tzvika@gmail.com</Email>
    <RoleType>Volunteer</RoleType>
    <Active>true</Active>
    <DistanceType>Driving</DistanceType>
    <Password>password123!?PP</Password>
    <Address>Ben Ami 28 Netanya</Address>
    <Latitude>32.321458</Latitude>
    <Longitude>34.853196</Longitude>
    <MaxDistance>953</MaxDistance>
  </Volunteer>
  <Volunteer>
    <Id>684300916</Id>
    <Name>Lior Shani</Name>
    <Phone>0543492496</Phone>
    <Email>Lior@gmail.com</Email>
    <RoleType>Volunteer</RoleType>
    <Active>true</Active>
    <DistanceType>Driving</DistanceType>
    <Password>password123!?PP</Password>
    <Address>Tchernichovsky 32 Netanya</Address>
    <Latitude>32.3208972</Latitude>
    <Longitude>34.8557568</Longitude>
    <MaxDistance>960</MaxDistance>
  </Volunteer>
  <Volunteer>
    <Id>649620168</Id>
    <Name>Adi Malka</Name>
    <Phone>054887248</Phone>
    <Email>Adi@gmail.com</Email>
    <RoleType>Volunteer</RoleType>
    <Active>true</Active>
    <DistanceType>Walking</DistanceType>
    <Password>password123!?PP</Password>
    <Address>Ahuza 124 Raanana</Address>
    <Latitude>32.1808257</Latitude>
    <Longitude>34.8739939</Longitude>
    <MaxDistance>435</MaxDistance>
  </Volunteer>
  <Volunteer>
    <Id>774766026</Id>
    <Name>Doron Peled</Name>
    <Phone>0543664889</Phone>
    <Email>Doron@gmail.com</Email>
    <RoleType>Volunteer</RoleType>
    <Active>true</Active>
    <DistanceType>Walking</DistanceType>
    <Password>password123!?PP</Password>
    <Address>HaPalmach 18 Raanana</Address>
    <Latitude>32.1905863</Latitude>
    <Longitude>34.8741786</Longitude>
    <MaxDistance>162</MaxDistance>
  </Volunteer>
  <Volunteer>
    <Id>839315322</Id>
    <Name>Eden Levi</Name>
    <Phone>0549941472</Phone>
    <Email>Eden@gmail.com</Email>
    <RoleType>Volunteer</RoleType>
    <Active>true</Active>
    <DistanceType>Aerial</DistanceType>
    <Password>password123!?PP</Password>
    <Address>Weizmann 40 Kfar Saba</Address>
    <Latitude>32.1705469</Latitude>
    <Longitude>34.9286637</Longitude>
    <MaxDistance>861</MaxDistance>
  </Volunteer>
  <Volunteer>
    <Id>340376037</Id>
    <Name>Benny Tal</Name>
    <Phone>0546944239</Phone>
    <Email>Benny@gmail.com</Email>
    <RoleType>Volunteer</RoleType>
    <Active>true</Active>
    <DistanceType>Walking</DistanceType>
    <Password>password123!?PP</Password>
    <Address>Herzl 53 Raanana</Address>
    <Latitude>32.1775266</Latitude>
    <Longitude>34.8678441</Longitude>
    <MaxDistance>205</MaxDistance>
  </Volunteer>
  <Volunteer>
    <Id>409305711</Id>
    <Name>Gali Levy</Name>
    <Phone>0549728218</Phone>
    <Email>Gali@gmail.com</Email>
    <RoleType>Volunteer</RoleType>
    <Active>true</Active>
    <DistanceType>Walking</DistanceType>
    <Password>password123!?PP</Password>
    <Address>Nordau 5 Raanana</Address>
    <Latitude>32.1854065</Latitude>
    <Longitude>34.8853162</Longitude>
    <MaxDistance>493</MaxDistance>
  </Volunteer>
  <Volunteer>
    <Id>549757896</Id>
    <Name>Yaara Shmuel</Name>
    <Phone>0541828304</Phone>
    <Email>Yaara@gmail.com</Email>
    <RoleType>Volunteer</RoleType>
    <Active>true</Active>
    <DistanceType>Driving</DistanceType>
    <Password>password123!?PP</Password>
    <Address>HaYovel 16 Raanana</Address>
    <Latitude>32.1843411</Latitude>
    <Longitude>34.8725648</Longitude>
    <MaxDistance>638</MaxDistance>
  </Volunteer>
  <Volunteer>
    <Id>926810573</Id>
    <Name>Yonatan Green</Name>
    <Phone>0545960149</Phone>
    <Email>Yonatan@gmail.com</Email>
    <RoleType>Volunteer</RoleType>
    <Active>true</Active>
    <DistanceType>Driving</DistanceType>
    <Password>password123!?PP</Password>
    <Address>Ben Gurion 5 Raanana</Address>
    <Latitude>32.180409</Latitude>
    <Longitude>34.87231</Longitude>
    <MaxDistance>435</MaxDistance>
  </Volunteer>
  <Volunteer>
    <Id>860230317</Id>
    <Name>Hadar Silver</Name>
    <Phone>0544148603</Phone>
    <Email>Hadar@gmail.com</Email>
    <RoleType>Volunteer</RoleType>
    <Active>true</Active>
    <DistanceType>Driving</DistanceType>
    <Password>password123!?PP</Password>
    <Address>HaEshel 7 Raanana</Address>
    <Latitude>32.1916612</Latitude>
    <Longitude>34.8585775</Longitude>
    <MaxDistance>94</MaxDistance>
  </Volunteer>
  <Volunteer>
    <Id>698880002</Id>
    <Name>Ella Sapir</Name>
    <Phone>054636778</Phone>
    <Email>Ella@gmail.com</Email>
    <RoleType>Volunteer</RoleType>
    <Active>true</Active>
    <DistanceType>Walking</DistanceType>
    <Password>password123!?PP</Password>
    <Address>Dizengoff 48 Tel Aviv</Address>
    <Latitude>32.0748561</Latitude>
    <Longitude>34.7761884</Longitude>
    <MaxDistance>737</MaxDistance>
  </Volunteer>
  <Volunteer>
    <Id>112386354</Id>
    <Name>David Golan</Name>
    <Phone>0544898236</Phone>
    <Email>David@gmail.com</Email>
    <RoleType>Volunteer</RoleType>
    <Active>true</Active>
    <DistanceType>Walking</DistanceType>
    <Password>password123!?PP</Password>
    <Address>Rothschild 22 Tel Aviv</Address>
    <Latitude>32.0627896</Latitude>
    <Longitude>34.7714756</Longitude>
    <MaxDistance>57</MaxDistance>
  </Volunteer>
  <Volunteer>
    <Id>304685415</Id>
    <Name>Shani Alon</Name>
    <Phone>0549034868</Phone>
    <Email>Shani@gmail.com</Email>
    <RoleType>Volunteer</RoleType>
    <Active>true</Active>
    <DistanceType>Driving</DistanceType>
    <Password>password123!?PP</Password>
    <Address>Ibn Gabirol 15 Tel Aviv</Address>
    <Latitude>32.0726935</Latitude>
    <Longitude>34.7816096</Longitude>
    <MaxDistance>338</MaxDistance>
  </Volunteer>
  <Volunteer>
    <Id>631447174</Id>
    <Name>Omer Dahan</Name>
    <Phone>054914288</Phone>
    <Email>Omer@gmail.com</Email>
    <RoleType>Volunteer</RoleType>
    <Active>true</Active>
    <DistanceType>Walking</DistanceType>
    <Password>password123!?PP</Password>
    <Address>Dizengoff 102 Tel Aviv</Address>
    <Latitude>32.0796074</Latitude>
    <Longitude>34.7740421</Longitude>
    <MaxDistance>627</MaxDistance>
  </Volunteer>
  <Volunteer>
    <Id>897036232</Id>
    <Name>Rotem Menashe</Name>
    <Phone>05491806</Phone>
    <Email>Rotem@gmail.com</Email>
    <RoleType>Volunteer</RoleType>
    <Active>true</Active>
    <DistanceType>Walking</DistanceType>
    <Password>password123!?PP</Password>
    <Address>Allenby 99 Tel Aviv</Address>
    <Latitude>32.0646173</Latitude>
    <Longitude>34.7726696</Longitude>
    <MaxDistance>934</MaxDistance>
  </Volunteer>
  <Volunteer>
    <Id>518274535</Id>
    <Name>Roi Bachar</Name>
    <Phone>0541270909</Phone>
    <Email>Roi@gmail.com</Email>
    <RoleType>Volunteer</RoleType>
    <Active>true</Active>
    <DistanceType>Aerial</DistanceType>
    <Password>password123!?PP</Password>
    <Address>King George 29 Tel Aviv</Address>
    <Latitude>32.0717837</Latitude>
    <Longitude>34.7731051</Longitude>
    <MaxDistance>928</MaxDistance>
  </Volunteer>
  <Volunteer>
    <Id>644126674</Id>
    <Name>Tomer Brill</Name>
    <Phone>054440809</Phone>
    <Email>Tomer@gmail.com</Email>
    <RoleType>Volunteer</RoleType>
    <Active>true</Active>
    <DistanceType>Driving</DistanceType>
    <Password>password123!?PP</Password>
    <Address>Shenkin 17 Tel Aviv</Address>
    <Latitude>32.0695395</Latitude>
    <Longitude>34.7723678</Longitude>
    <MaxDistance>701</MaxDistance>
  </Volunteer>
  <Volunteer>
    <Id>380467548</Id>
    <Name>Linor Yaakov</Name>
    <Phone>0542022427</Phone>
    <Email>Linor@gmail.com</Email>
    <RoleType>Volunteer</RoleType>
    <Active>true</Active>
    <DistanceType>Aerial</DistanceType>
    <Password>password123!?PP</Password>
    <Address>Bograshov 20 Tel Aviv</Address>
    <Latitude>32.0769951</Latitude>
    <Longitude>34.7692827</Longitude>
    <MaxDistance>236</MaxDistance>
  </Volunteer>
  <Volunteer>
    <Id>496686734</Id>
    <Name>Hodaya Shaked</Name>
    <Phone>0546167642</Phone>
    <Email>Hodaya@gmail.com</Email>
    <RoleType>Volunteer</RoleType>
    <Active>true</Active>
    <DistanceType>Aerial</DistanceType>
    <Password>password123!?PP</Password>
    <Address>Frishman 22 Tel Aviv</Address>
    <Latitude>32.0797596</Latitude>
    <Longitude>34.7706442</Longitude>
    <MaxDistance>351</MaxDistance>
  </Volunteer>
  <Volunteer>
    <Id>187991146</Id>
    <Name>Elad Rozen</Name>
    <Phone>0543553592</Phone>
    <Email>Elad@gmail.com</Email>
    <RoleType>Volunteer</RoleType>
    <Active>false</Active>
    <DistanceType>Aerial</DistanceType>
    <Password>password123!?PP</Password>
    <Address>Yehuda HaMaccabi 15 Tel Aviv</Address>
    <Latitude>32.0938841</Latitude>
    <Longitude>34.7860657</Longitude>
    <MaxDistance>322</MaxDistance>
  </Volunteer>
  <Volunteer>
    <Id>955318381</Id>
    <Name>Maayan Sasson</Name>
    <Phone>0547920844</Phone>
    <Email>Maayan@gmail.com</Email>
    <RoleType>Volunteer</RoleType>
    <Active>true</Active>
    <DistanceType>Aerial</DistanceType>
    <Password>password123!?PP</Password>
    <Address>Mikve Israel 19 Tel Aviv</Address>
    <Latitude>32.062857</Latitude>
    <Longitude>34.7770402</Longitude>
    <MaxDistance>471</MaxDistance>
  </Volunteer>
  <Volunteer>
    <Id>319745238</Id>
    <Name>Hanan Ravid</Name>
    <Phone>054362007</Phone>
    <Email>Hanan@gmail.com</Email>
    <RoleType>Volunteer</RoleType>
    <Active>true</Active>
    <DistanceType>Walking</DistanceType>
    <Password>password123!?PP</Password>
    <Address>Weizmann 35 Kfar Saba</Address>
    <Latitude>32.177421</Latitude>
    <Longitude>34.899857</Longitude>
    <MaxDistance>272</MaxDistance>
  </Volunteer>
  <Volunteer>
    <Id>154370076</Id>
    <Name>Galit Azulay</Name>
    <Phone>0543637808</Phone>
    <Email>Galit@gmail.com</Email>
    <RoleType>Volunteer</RoleType>
    <Active>false</Active>
    <DistanceType>Walking</DistanceType>
    <Password>password123!?PP</Password>
    <Address>Weizmann 50 Kfar Saba</Address>
    <Latitude>32.1765135</Latitude>
    <Longitude>34.9015956</Longitude>
    <MaxDistance>334</MaxDistance>
  </Volunteer>
  <Volunteer>
    <Id>885138750</Id>
    <Name>Oded Tal</Name>
    <Phone>0549635643</Phone>
    <Email>Oded@gmail.com</Email>
    <RoleType>Volunteer</RoleType>
    <Active>true</Active>
    <DistanceType>Driving</DistanceType>
    <Password>password123!?PP</Password>
    <Address>Arlozorov 25 Kfar Saba</Address>
    <Latitude>32.1708769</Latitude>
    <Longitude>34.9047851</Longitude>
    <MaxDistance>921</MaxDistance>
  </Volunteer>
  <Volunteer>
    <Id>847637709</Id>
    <Name>Dana Biran</Name>
    <Phone>0547031034</Phone>
    <Email>Dana@gmail.com</Email>
    <RoleType>Volunteer</RoleType>
    <Active>true</Active>
    <DistanceType>Walking</DistanceType>
    <Password>password123!?PP</Password>
    <Address>Dizengoff 55 Tel Aviv</Address>
    <Latitude>32.0754236</Latitude>
    <Longitude>34.7748328</Longitude>
    <MaxDistance>712</MaxDistance>
  </Volunteer>
  <Volunteer>
    <Id>471533620</Id>
    <Name>Ofir Gil</Name>
    <Phone>0542505085</Phone>
    <Email>Ofir@gmail.com</Email>
    <RoleType>Volunteer</RoleType>
    <Active>true</Active>
    <DistanceType>Aerial</DistanceType>
    <Password>password123!?PP</Password>
    <Address>Herzl 78 Kfar Saba</Address>
    <Latitude>32.1772724</Latitude>
    <Longitude>34.9121208</Longitude>
    <MaxDistance>830</MaxDistance>
  </Volunteer>
  <Volunteer>
    <Id>233465392</Id>
    <Name>Nofar Ben-Atar</Name>
    <Phone>0542340122</Phone>
    <Email>Nofar@gmail.com</Email>
    <RoleType>Volunteer</RoleType>
    <Active>true</Active>
    <DistanceType>Aerial</DistanceType>
    <Password>password123!?PP</Password>
    <Address>Tel Hai 33 Kfar Saba</Address>
    <Latitude>32.1737073</Latitude>
    <Longitude>34.9138018</Longitude>
    <MaxDistance>401</MaxDistance>
  </Volunteer>
  <Volunteer>
    <Id>252284898</Id>
    <Name>Ruth Shalom</Name>
    <Phone>0543359284</Phone>
    <Email>Ruth@gmail.com</Email>
    <RoleType>Volunteer</RoleType>
    <Active>true</Active>
    <DistanceType>Driving</DistanceType>
    <Password>password123!?PP</Password>
    <Address>HaRav Maimon 6 Herzliya</Address>
    <Latitude>32.1652867</Latitude>
    <Longitude>34.83199</Longitude>
    <MaxDistance>241</MaxDistance>
  </Volunteer>
  <Volunteer>
    <Id>535054175</Id>
    <Name>Yael Ben-Zvi</Name>
    <Phone>0541490895</Phone>
    <Email>Yael@gmail.com</Email>
    <RoleType>Volunteer</RoleType>
    <Active>true</Active>
    <DistanceType>Aerial</DistanceType>
    <Password>password123!?PP</Password>
    <Address>Sokolov 3 Kfar Saba</Address>
    <Latitude>32.1762246</Latitude>
    <Longitude>34.9028277</Longitude>
    <MaxDistance>196</MaxDistance>
  </Volunteer>
  <Volunteer>
    <Id>237113410</Id>
    <Name>Itamar Cohen</Name>
    <Phone>0546584160</Phone>
    <Email>Itamar@gmail.com</Email>
    <RoleType>Volunteer</RoleType>
    <Active>true</Active>
    <DistanceType>Walking</DistanceType>
    <Password>password123!?PP</Password>
    <Address>Rothschild 9 Kfar Saba</Address>
    <Latitude>32.1706449</Latitude>
    <Longitude>34.9070328</Longitude>
    <MaxDistance>396</MaxDistance>
  </Volunteer>
  <Volunteer>
    <Id>281199794</Id>
    <Name>Avi Nave</Name>
    <Phone>0541709532</Phone>
    <Email>Avi@gmail.com</Email>
    <RoleType>Volunteer</RoleType>
    <Active>true</Active>
    <DistanceType>Driving</DistanceType>
    <Password>password123!?PP</Password>
    <Address>HaRav Kook 10 Raanana</Address>
    <Latitude>32.1961583</Latitude>
    <Longitude>34.8742296</Longitude>
    <MaxDistance>264</MaxDistance>
  </Volunteer>
  <Volunteer>
    <Id>946055258</Id>
    <Name>Ron Aloni</Name>
    <Phone>0549152870</Phone>
    <Email>Ron@gmail.com</Email>
    <RoleType>Volunteer</RoleType>
    <Active>true</Active>
    <DistanceType>Aerial</DistanceType>
    <Password>password123!?PP</Password>
    <Address>Herzl 12 Kfar Saba</Address>
    <Latitude>32.1745839</Latitude>
    <Longitude>34.9111387</Longitude>
    <MaxDistance>771</MaxDistance>
  </Volunteer>
  <Volunteer>
    <Id>566783635</Id>
    <Name>Yuval-Or Michaeli</Name>
    <Phone>0546268033</Phone>
    <Email>Yuval@gmail.com</Email>
    <RoleType>Management</RoleType>
    <Active>true</Active>
    <DistanceType>Aerial</DistanceType>
    <Password>password123!?PP</Password>
    <Address>Wingate 38 Herzliya</Address>
    <Latitude>32.1703702</Latitude>
    <Longitude>34.8039056</Longitude>
    <MaxDistance>580</MaxDistance>
  </Volunteer>
</ArrayOfVolunteer>